[
    {
        "Name": "Europe",
        "MinLon": -30.0,
        "MaxLon": 65.0,
        "MinLat": 25.0,
        "MaxLat": 89.0,
        "GridResolution": 1.0,
        "Cities": [
            {
                "Name": "Bucharest",
                "Subregion": "Romania",
                "Latitude": 44.43,
                "Longitude": 26.1,
                "Default": true
            },
            {
                "Name": "Istanbul",
                "Subregion": "Turkey",
                "Latitude": 41.013611,
                "Longitude": 28.955,
                "Default": true
            },
            {
                "Name": "Moscow",
                "Subregion": "Russia",
                "Latitude": 55.75,
                "Longitude": 37.616667,
                "Default": true
            },
            {
                "Name": "London",
                "Subregion": "United Kingdom",
                "Latitude": 51.507222,
                "Longitude": 0.1275,
                "Default": true
            },
            {
                "Name": "Saint Petersburg",
                "Subregion": "Russia",
                "Latitude": 59.95,
                "Longitude": 30.3
            },
            {
                "Name": "Berlin",
                "Subregion": "Germany",
                "Latitude": 52.516667,
                "Longitude": 13.383333,
                "Default": true
            },
            {
                "Name": "Madrid",
                "Subregion": "Spain",
                "Latitude": 40.383333,
                "Longitude": 3.716667,
                "Default": true
            },
            {
                "Name": "Kiev",
                "Subregion": "Ukraine",
                "Latitude": 50.45,
                "Longitude": 30.523333,
                "Default": true
            },
            {
                "Name": "Rome",
                "Subregion": "Italy",
                "Latitude": 41.9,
                "Longitude": 12.5,
                "Default": true
            },
            {
                "Name": "Paris",
                "Subregion": "France",
                "Latitude": 48.8567,
                "Longitude": 2.3508,
                "Default": true
            },
            {
                "Name": "Minsk",
                "Subregion": "Belarus",
                "Latitude": 53.9,
                "Longitude": 27.566667,
                "Default": true
            },
            {
                "Name": "Vienna",
                "Subregion": "Austria",
                "Latitude": 48.2,
                "Longitude": 16.366667,
                "Default": true
            },
            {
                "Name": "Hamburg",
                "Subregion": "Germany",
                "Latitude": 53.565278,
                "Longitude": 10.001389
            },
            {
                "Name": "Budapest",
                "Subregion": "Hungary",
                "Latitude": 47.4925,
                "Longitude": 19.051389,
                "Default": true
            },
            {
                "Name": "Warsaw",
                "Subregion": "Poland",
                "Latitude": 52.233333,
                "Longitude": 21.016667,
                "Default": true
            },
            {
                "Name": "Barcelona",
                "Subregion": "Spain",
                "Latitude": 41.383333,
                "Longitude": 2.183333
            },
            {
                "Name": "Munich",
                "Subregion": "Germany",
                "Latitude": 48.133333,
                "Longitude": 11.566667
            },
            {
                "Name": "Kharkiv",
                "Subregion": "Ukraine",
                "Latitude": 50.004444,
                "Longitude": 36.231389
            },
            {
                "Name": "Milan",
                "Subregion": "Italy",
                "Latitude": 45.466667,
                "Longitude": 9.183333
            },
            {
                "Name": "Prague",
                "Subregion": "Czech Republic",
                "Latitude": 50.083333,
                "Longitude": 14.416667,
                "Default": true
            },
            {
                "Name": "Nizhny Novgorod",
                "Subregion": "Russia",
                "Latitude": 56.326944,
                "Longitude": 44.0075
            },
            {
                "Name": "Sofia",
                "Subregion": "Bulgaria",
                "Latitude": 42.7,
                "Longitude": 23.33,
                "Default": true
            },
            {
                "Name": "Kazan",
                "Subregion": "Russia",
                "Latitude": 55.790278,
                "Longitude": 49.134721999999996
            },
            {
                "Name": "Brussels",
                "Subregion": "Belgium",
                "Latitude": 50.85,
                "Longitude": 4.35,
                "Default": true
            },
            {
                "Name": "Samara",
                "Subregion": "Russia",
                "Latitude": 53.202778,
                "Longitude": 50.140833
            },
            {
                "Name": "Belgrade",
                "Subregion": "Serbia",
                "Latitude": 44.816667,
                "Longitude": 20.466667,
                "Default": true
            },
            {
                "Name": "Rostov-on-Don",
                "Subregion": "Russia",
                "Latitude": 47.233333,
                "Longitude": 39.7
            },
            {
                "Name": "Birmingham",
                "Subregion": "United Kingdom",
                "Latitude": 52.483056,
                "Longitude": 1.893611
            },
            {
                "Name": "Ufa",
                "Subregion": "Russia",
                "Latitude": 54.75,
                "Longitude": 55.966667
            },
            {
                "Name": "Cologne",
                "Subregion": "Germany",
                "Latitude": 50.936389,
                "Longitude": 6.952778
            },
            {
                "Name": "Perm",
                "Subregion": "Russia",
                "Latitude": 58.0,
                "Longitude": 56.316667
            },
            {
                "Name": "Voronezh",
                "Subregion": "Russia",
                "Latitude": 51.671667,
                "Longitude": 39.210556
            },
            {
                "Name": "Volgograd",
                "Subregion": "Russia",
                "Latitude": 48.7,
                "Longitude": 44.516667
            },
            {
                "Name": "Odessa",
                "Subregion": "Ukraine",
                "Latitude": 46.466667,
                "Longitude": 30.733333
            },
            {
                "Name": "Naples",
                "Subregion": "Italy",
                "Latitude": 40.833333,
                "Longitude": 14.25
            },
            {
                "Name": "Dnipropetrovsk",
                "Subregion": "Ukraine",
                "Latitude": 48.45,
                "Longitude": 34.983333
            }
        ]
    },
    {
        "Name": "Romania",
        "MinLon": 20.0,
        "MaxLon": 30.0,
        "MinLat": 43.0,
        "MaxLat": 49.0,
        "GridResolution": 0.5,
        "Cities": [
            {
                "Name": "Alba Iulia",
                "Subregion": "Alba",
                "Latitude": 46.07,
                "Longitude": 23.57,
                "Default": true
            },
            {
                "Name": "Barabant",
                "Subregion": "Alba",
                "Latitude": 46.1,
                "Longitude": 23.58
            },
            {
                "Name": "Micesti",
                "Subregion": "Cluj",
                "Latitude": 46.64,
                "Longitude": 23.62
            },
            {
                "Name": "Oarda",
                "Subregion": "Alba",
                "Latitude": 46.02,
                "Longitude": 23.59
            },
            {
                "Name": "Paclisa",
                "Subregion": "Hunedoara",
                "Latitude": 45.56,
                "Longitude": 22.88
            },
            {
                "Name": "Ciugud",
                "Subregion": "Alba",
                "Latitude": 46.05,
                "Longitude": 23.61
            },
            {
                "Name": "Drambar",
                "Subregion": "Alba",
                "Latitude": 46.08,
                "Longitude": 23.63
            },
            {
                "Name": "Limba",
                "Subregion": "Alba",
                "Latitude": 46.04,
                "Longitude": 23.6
            },
            {
                "Name": "Hapria",
                "Subregion": "Alba",
                "Latitude": 46.08,
                "Longitude": 23.67
            },
            {
                "Name": "Seusa",
                "Subregion": "Alba",
                "Latitude": 46.06,
                "Longitude": 23.63
            },
            {
                "Name": "Teleac",
                "Subregion": "Mures",
                "Latitude": 46.67,
                "Longitude": 24.8
            },
            {
                "Name": "Abrud",
                "Subregion": "Constanta",
                "Latitude": 44.15,
                "Longitude": 27.98
            },
            {
                "Name": "Abrud-Sat",
                "Subregion": "Alba",
                "Latitude": 46.28,
                "Longitude": 23.06
            },
            {
                "Name": "Gura Cornei",
                "Subregion": "Alba",
                "Latitude": 46.26,
                "Longitude": 23.09
            },
            {
                "Name": "Soharu",
                "Subregion": "Alba",
                "Latitude": 46.28,
                "Longitude": 23.03
            },
            {
                "Name": "Aiud",
                "Subregion": "Alba",
                "Latitude": 46.31,
                "Longitude": 23.72
            },
            {
                "Name": "Aiudul de Sus",
                "Subregion": "Alba",
                "Latitude": 46.32,
                "Longitude": 23.69
            },
            {
                "Name": "Gambas",
                "Subregion": "Alba",
                "Latitude": 46.35,
                "Longitude": 23.72
            },
            {
                "Name": "Magina",
                "Subregion": "Alba",
                "Latitude": 46.34,
                "Longitude": 23.65
            },
            {
                "Name": "Pagida",
                "Subregion": "Alba",
                "Latitude": 46.34,
                "Longitude": 23.75
            },
            {
                "Name": "Ciumbrud",
                "Subregion": "Alba",
                "Latitude": 46.31,
                "Longitude": 23.76
            },
            {
                "Name": "Garbova de Jos",
                "Subregion": "Alba",
                "Latitude": 46.26,
                "Longitude": 23.67
            },
            {
                "Name": "Garbova de Sus",
                "Subregion": "Alba",
                "Latitude": 46.29,
                "Longitude": 23.62
            },
            {
                "Name": "Garbovita",
                "Subregion": "Alba",
                "Latitude": 46.28,
                "Longitude": 23.64
            },
            {
                "Name": "Sancrai",
                "Subregion": "Hunedoara",
                "Latitude": 45.75,
                "Longitude": 22.98
            },
            {
                "Name": "Tifra",
                "Subregion": "Alba",
                "Latitude": 46.26,
                "Longitude": 23.69
            },
            {
                "Name": "Blaj",
                "Subregion": "Olt",
                "Latitude": 44.27,
                "Longitude": 24.2
            },
            {
                "Name": "Deleni-Obarsie",
                "Subregion": "Alba",
                "Latitude": 46.1,
                "Longitude": 23.85
            },
            {
                "Name": "Flitesti",
                "Subregion": "Alba",
                "Latitude": 46.11,
                "Longitude": 23.87
            },
            {
                "Name": "Izvoarele",
                "Subregion": "Vrancea",
                "Latitude": 46.16,
                "Longitude": 27.34
            },
            {
                "Name": "Petrisat",
                "Subregion": "Alba",
                "Latitude": 46.19,
                "Longitude": 23.92
            },
            {
                "Name": "Tiur",
                "Subregion": "Alba",
                "Latitude": 46.16,
                "Longitude": 23.89
            },
            {
                "Name": "Veza",
                "Subregion": "Alba",
                "Latitude": 46.17,
                "Longitude": 23.92
            },
            {
                "Name": "Manarade",
                "Subregion": "Alba",
                "Latitude": 46.14,
                "Longitude": 23.97
            },
            {
                "Name": "Spatac",
                "Subregion": "Alba",
                "Latitude": 46.14,
                "Longitude": 23.94
            },
            {
                "Name": "Campeni",
                "Subregion": "Dolj",
                "Latitude": 44.37,
                "Longitude": 24.02
            },
            {
                "Name": "Boncesti",
                "Subregion": "Alba",
                "Latitude": 46.36,
                "Longitude": 23.07
            },
            {
                "Name": "Borlesti",
                "Subregion": "Satu Mare",
                "Latitude": 47.68,
                "Longitude": 23.34
            },
            {
                "Name": "Botesti",
                "Subregion": "Vaslui",
                "Latitude": 46.8,
                "Longitude": 27.89
            },
            {
                "Name": "Certege",
                "Subregion": "Alba",
                "Latitude": 46.41,
                "Longitude": 23.03
            },
            {
                "Name": "Coasta Vascului",
                "Subregion": "Alba",
                "Latitude": 46.41,
                "Longitude": 23.05
            },
            {
                "Name": "Dandut",
                "Subregion": "Alba",
                "Latitude": 46.36,
                "Longitude": 23.09
            },
            {
                "Name": "Dealu Bistrii",
                "Subregion": "Alba",
                "Latitude": 46.38,
                "Longitude": 23.06
            },
            {
                "Name": "Dealu Capsei",
                "Subregion": "Alba",
                "Latitude": 46.41,
                "Longitude": 23.07
            },
            {
                "Name": "Dric",
                "Subregion": "Alba",
                "Latitude": 46.4,
                "Longitude": 23.05
            },
            {
                "Name": "Fata Abrudului",
                "Subregion": "Alba",
                "Latitude": 46.35,
                "Longitude": 23.06
            },
            {
                "Name": "Floresti",
                "Subregion": "Vaslui",
                "Latitude": 46.55,
                "Longitude": 27.57
            },
            {
                "Name": "Furduiesti",
                "Subregion": "Alba",
                "Latitude": 46.31,
                "Longitude": 22.99
            },
            {
                "Name": "Mihoesti",
                "Subregion": "Alba",
                "Latitude": 46.37,
                "Longitude": 23.03
            },
            {
                "Name": "Motorasti",
                "Subregion": "Alba",
                "Latitude": 46.38,
                "Longitude": 23.04
            },
            {
                "Name": "Peste Valea Bistrii",
                "Subregion": "Alba",
                "Latitude": 46.44,
                "Longitude": 23.03
            },
            {
                "Name": "Poduri",
                "Subregion": "Vrancea",
                "Latitude": 45.88,
                "Longitude": 26.82
            },
            {
                "Name": "Sorlita",
                "Subregion": "Alba",
                "Latitude": 46.37,
                "Longitude": 23.02
            },
            {
                "Name": "Tomusesti",
                "Subregion": "Alba",
                "Latitude": 46.45,
                "Longitude": 23.01
            },
            {
                "Name": "Valea Bistrii",
                "Subregion": "Alba",
                "Latitude": 46.38,
                "Longitude": 23.07
            },
            {
                "Name": "Valea Caselor",
                "Subregion": "Valcea",
                "Latitude": 44.95,
                "Longitude": 24.12
            },
            {
                "Name": "Varsi",
                "Subregion": "Alba",
                "Latitude": 46.36,
                "Longitude": 23.07
            },
            {
                "Name": "Cugir",
                "Subregion": "Alba",
                "Latitude": 45.84,
                "Longitude": 23.37
            },
            {
                "Name": "Bocsitura",
                "Subregion": "Alba",
                "Latitude": 45.77,
                "Longitude": 23.43
            },
            {
                "Name": "Bucuru",
                "Subregion": "Alba",
                "Latitude": 45.79,
                "Longitude": 23.4
            },
            {
                "Name": "Calene",
                "Subregion": "Alba",
                "Latitude": 45.83,
                "Longitude": 23.44
            },
            {
                "Name": "Feteni",
                "Subregion": "Valcea",
                "Latitude": 45.09,
                "Longitude": 24.42
            },
            {
                "Name": "Goasele",
                "Subregion": "Alba",
                "Latitude": 45.78,
                "Longitude": 23.46
            },
            {
                "Name": "Mugesti",
                "Subregion": "Alba",
                "Latitude": 45.82,
                "Longitude": 23.45
            },
            {
                "Name": "Vinerea",
                "Subregion": "Alba",
                "Latitude": 45.89,
                "Longitude": 23.35
            },
            {
                "Name": "Ocna Mures",
                "Subregion": "Alba",
                "Latitude": 46.39,
                "Longitude": 23.85
            },
            {
                "Name": "Uioara de Jos",
                "Subregion": "Alba",
                "Latitude": 46.37,
                "Longitude": 23.84
            },
            {
                "Name": "Uioara de Sus",
                "Subregion": "Alba",
                "Latitude": 46.39,
                "Longitude": 23.88
            },
            {
                "Name": "Cisteiu de Mures",
                "Subregion": "Alba",
                "Latitude": 46.38,
                "Longitude": 23.81
            },
            {
                "Name": "Micoslaca",
                "Subregion": "Alba",
                "Latitude": 46.37,
                "Longitude": 23.79
            },
            {
                "Name": "Razboieni-Cetate",
                "Subregion": "Alba",
                "Latitude": 46.41,
                "Longitude": 23.87
            },
            {
                "Name": "Sebes",
                "Subregion": "Mures",
                "Latitude": 46.93,
                "Longitude": 24.86
            },
            {
                "Name": "Lancram",
                "Subregion": "Alba",
                "Latitude": 45.99,
                "Longitude": 23.56
            },
            {
                "Name": "Petresti",
                "Subregion": "Vrancea",
                "Latitude": 45.73,
                "Longitude": 27.23
            },
            {
                "Name": "Rahau",
                "Subregion": "Alba",
                "Latitude": 45.9,
                "Longitude": 23.62
            },
            {
                "Name": "Zlatna",
                "Subregion": "Alba",
                "Latitude": 46.11,
                "Longitude": 23.22
            },
            {
                "Name": "Budeni",
                "Subregion": "Suceava",
                "Latitude": 47.41,
                "Longitude": 26.66
            },
            {
                "Name": "Dealu Roatei",
                "Subregion": "Alba",
                "Latitude": 46.12,
                "Longitude": 23.15
            },
            {
                "Name": "Dobrot",
                "Subregion": "Hunedoara",
                "Latitude": 46.25,
                "Longitude": 22.68
            },
            {
                "Name": "Dumbrava",
                "Subregion": "Vrancea",
                "Latitude": 45.66,
                "Longitude": 27.01
            },
            {
                "Name": "Fenes",
                "Subregion": "Caras-Severin",
                "Latitude": 45.19,
                "Longitude": 22.35
            },
            {
                "Name": "Galati",
                "Subregion": "Hunedoara",
                "Latitude": 45.52,
                "Longitude": 23.07
            },
            {
                "Name": "Galati",
                "Subregion": "Galati",
                "Latitude": 45.43,
                "Longitude": 28.00,
                "Default": true
            },
            {
                "Name": "Izvoru Ampoiului",
                "Subregion": "Alba",
                "Latitude": 46.15,
                "Longitude": 23.17
            },
            {
                "Name": "Patrangeni",
                "Subregion": "Alba",
                "Latitude": 46.09,
                "Longitude": 23.26
            },
            {
                "Name": "Pirita",
                "Subregion": "Alba",
                "Latitude": 46.14,
                "Longitude": 23.16
            },
            {
                "Name": "Parau Gruiului",
                "Subregion": "Alba",
                "Latitude": 46.16,
                "Longitude": 23.19
            },
            {
                "Name": "Podu lui Paul",
                "Subregion": "Alba",
                "Latitude": 46.1,
                "Longitude": 23.25
            },
            {
                "Name": "Runc",
                "Subregion": "Harghita",
                "Latitude": 46.91,
                "Longitude": 25.42
            },
            {
                "Name": "Rusi",
                "Subregion": "Vaslui",
                "Latitude": 46.46,
                "Longitude": 27.51
            },
            {
                "Name": "Suseni",
                "Subregion": "Valcea",
                "Latitude": 45.17,
                "Longitude": 24.14
            },
            {
                "Name": "Trampoiele",
                "Subregion": "Alba",
                "Latitude": 46.15,
                "Longitude": 23.15
            },
            {
                "Name": "Valea Mica",
                "Subregion": "Vrancea",
                "Latitude": 45.6,
                "Longitude": 26.92
            },
            {
                "Name": "Valtori",
                "Subregion": "Alba",
                "Latitude": 46.4,
                "Longitude": 22.94
            },
            {
                "Name": "Albac",
                "Subregion": "Alba",
                "Latitude": 46.45,
                "Longitude": 22.97
            },
            {
                "Name": "Barasti",
                "Subregion": "Suceava",
                "Latitude": 47.36,
                "Longitude": 26.35
            },
            {
                "Name": "Budaiesti",
                "Subregion": "Alba",
                "Latitude": 46.48,
                "Longitude": 22.97
            },
            {
                "Name": "Cionesti",
                "Subregion": "Alba",
                "Latitude": 46.47,
                "Longitude": 22.99
            },
            {
                "Name": "Costesti",
                "Subregion": "Valcea",
                "Latitude": 45.15,
                "Longitude": 24.06
            },
            {
                "Name": "Dealu Lamasoi",
                "Subregion": "Alba",
                "Latitude": 46.49,
                "Longitude": 22.99
            },
            {
                "Name": "Deve",
                "Subregion": "Alba",
                "Latitude": 46.46,
                "Longitude": 22.94
            },
            {
                "Name": "Dupa Plese",
                "Subregion": "Alba",
                "Latitude": 46.44,
                "Longitude": 22.94
            },
            {
                "Name": "Fata",
                "Subregion": "Arges",
                "Latitude": 44.81,
                "Longitude": 24.63
            },
            {
                "Name": "Plesesti",
                "Subregion": "Vrancea",
                "Latitude": 46.16,
                "Longitude": 27.45
            },
            {
                "Name": "Potionci",
                "Subregion": "Alba",
                "Latitude": 46.44,
                "Longitude": 22.93
            },
            {
                "Name": "Rogoz",
                "Subregion": "Maramures",
                "Latitude": 47.47,
                "Longitude": 23.93
            },
            {
                "Name": "Rosesti",
                "Subregion": "Alba",
                "Latitude": 46.48,
                "Longitude": 22.93
            },
            {
                "Name": "Rusesti",
                "Subregion": "Hunedoara",
                "Latitude": 46.32,
                "Longitude": 22.77
            },
            {
                "Name": "Sohodol",
                "Subregion": "Hunedoara",
                "Latitude": 45.73,
                "Longitude": 22.67
            },
            {
                "Name": "Tamboresti",
                "Subregion": "Alba",
                "Latitude": 46.45,
                "Longitude": 22.93
            },
            {
                "Name": "Almasu Mare",
                "Subregion": "Bihor",
                "Latitude": 47.33,
                "Longitude": 22.53
            },
            {
                "Name": "Almasu de Mijloc",
                "Subregion": "Alba",
                "Latitude": 46.07,
                "Longitude": 23.11
            },
            {
                "Name": "Bradet",
                "Subregion": "Prahova",
                "Latitude": 45.34,
                "Longitude": 26.19
            },
            {
                "Name": "Cheile Cibului",
                "Subregion": "Alba",
                "Latitude": 46.04,
                "Longitude": 23.18
            },
            {
                "Name": "Cib",
                "Subregion": "Alba",
                "Latitude": 46.06,
                "Longitude": 23.19
            },
            {
                "Name": "Glod",
                "Subregion": "Salaj",
                "Latitude": 47.29,
                "Longitude": 23.65
            },
            {
                "Name": "Nadastia",
                "Subregion": "Alba",
                "Latitude": 46.08,
                "Longitude": 23.15
            },
            {
                "Name": "Arieseni",
                "Subregion": "Alba",
                "Latitude": 46.48,
                "Longitude": 22.76
            },
            {
                "Name": "Avramesti",
                "Subregion": "Valcea",
                "Latitude": 44.86,
                "Longitude": 24.17
            },
            {
                "Name": "Bubesti",
                "Subregion": "Alba",
                "Latitude": 46.51,
                "Longitude": 22.71
            },
            {
                "Name": "Casa de Piatra",
                "Subregion": "Alba",
                "Latitude": 46.54,
                "Longitude": 22.78
            },
            {
                "Name": "Cobles",
                "Subregion": "Alba",
                "Latitude": 46.49,
                "Longitude": 22.74
            },
            {
                "Name": "Dealu Bajului",
                "Subregion": "Alba",
                "Latitude": 46.46,
                "Longitude": 22.77
            },
            {
                "Name": "Fata Cristesei",
                "Subregion": "Alba",
                "Latitude": 46.49,
                "Longitude": 22.76
            },
            {
                "Name": "Fata Lapusului",
                "Subregion": "Alba",
                "Latitude": 46.47,
                "Longitude": 22.78
            },
            {
                "Name": "Galbena",
                "Subregion": "Alba",
                "Latitude": 46.47,
                "Longitude": 22.73
            },
            {
                "Name": "Hodobana",
                "Subregion": "Alba",
                "Latitude": 46.52,
                "Longitude": 22.77
            },
            {
                "Name": "Izlaz",
                "Subregion": "Alba",
                "Latitude": 46.48,
                "Longitude": 22.72
            },
            {
                "Name": "Pantesti",
                "Subregion": "Alba",
                "Latitude": 46.48,
                "Longitude": 22.78
            },
            {
                "Name": "Patrahaitesti",
                "Subregion": "Alba",
                "Latitude": 46.45,
                "Longitude": 22.74
            },
            {
                "Name": "Poienita",
                "Subregion": "Vrancea",
                "Latitude": 45.58,
                "Longitude": 26.91
            },
            {
                "Name": "Ravicesti",
                "Subregion": "Alba",
                "Latitude": 46.48,
                "Longitude": 22.78
            },
            {
                "Name": "Sturu",
                "Subregion": "Alba",
                "Latitude": 46.47,
                "Longitude": 22.8
            },
            {
                "Name": "Stei-Arieseni",
                "Subregion": "Alba",
                "Latitude": 46.47,
                "Longitude": 22.75
            },
            {
                "Name": "Vanvucesti",
                "Subregion": "Alba",
                "Latitude": 46.48,
                "Longitude": 22.72
            },
            {
                "Name": "Avram Iancu",
                "Subregion": "Botosani",
                "Latitude": 48.07,
                "Longitude": 26.88
            },
            {
                "Name": "Achimetesti",
                "Subregion": "Alba",
                "Latitude": 46.39,
                "Longitude": 22.8
            },
            {
                "Name": "Badai",
                "Subregion": "Alba",
                "Latitude": 46.41,
                "Longitude": 22.76
            },
            {
                "Name": "Boldesti",
                "Subregion": "Prahova",
                "Latitude": 44.86,
                "Longitude": 26.55
            },
            {
                "Name": "Calugaresti",
                "Subregion": "Alba",
                "Latitude": 46.4,
                "Longitude": 22.79
            },
            {
                "Name": "Casoaia",
                "Subregion": "Alba",
                "Latitude": 46.39,
                "Longitude": 22.76
            },
            {
                "Name": "Candesti",
                "Subregion": "Vrancea",
                "Latitude": 45.54,
                "Longitude": 27.08
            },
            {
                "Name": "Carasti",
                "Subregion": "Alba",
                "Latitude": 46.38,
                "Longitude": 22.83
            },
            {
                "Name": "Cartulesti",
                "Subregion": "Alba",
                "Latitude": 46.39,
                "Longitude": 22.79
            },
            {
                "Name": "Cocesti",
                "Subregion": "Alba",
                "Latitude": 46.36,
                "Longitude": 22.81
            },
            {
                "Name": "Cocosesti",
                "Subregion": "Prahova",
                "Latitude": 45.0,
                "Longitude": 25.99
            },
            {
                "Name": "Coroiesti",
                "Subregion": "Vaslui",
                "Latitude": 46.25,
                "Longitude": 27.48
            },
            {
                "Name": "Dealu Crisului",
                "Subregion": "Alba",
                "Latitude": 46.34,
                "Longitude": 22.84
            },
            {
                "Name": "Dolesti",
                "Subregion": "Alba",
                "Latitude": 46.37,
                "Longitude": 22.84
            },
            {
                "Name": "Dumacesti",
                "Subregion": "Alba",
                "Latitude": 46.39,
                "Longitude": 22.8
            },
            {
                "Name": "Gojeiesti",
                "Subregion": "Alba",
                "Latitude": 46.38,
                "Longitude": 22.83
            },
            {
                "Name": "Heleresti",
                "Subregion": "Alba",
                "Latitude": 46.36,
                "Longitude": 22.84
            },
            {
                "Name": "Incesti",
                "Subregion": "Bihor",
                "Latitude": 46.84,
                "Longitude": 22.13
            },
            {
                "Name": "Jojei",
                "Subregion": "Alba",
                "Latitude": 46.35,
                "Longitude": 22.83
            },
            {
                "Name": "Martesti",
                "Subregion": "Arges",
                "Latitude": 44.71,
                "Longitude": 24.75
            },
            {
                "Name": "Orgesti",
                "Subregion": "Alba",
                "Latitude": 46.38,
                "Longitude": 22.8
            },
            {
                "Name": "Patrutesti",
                "Subregion": "Alba",
                "Latitude": 46.37,
                "Longitude": 22.85
            },
            {
                "Name": "Plai",
                "Subregion": "Suceava",
                "Latitude": 47.56,
                "Longitude": 25.37
            },
            {
                "Name": "Puselesti",
                "Subregion": "Alba",
                "Latitude": 46.36,
                "Longitude": 22.86
            },
            {
                "Name": "Soicesti",
                "Subregion": "Alba",
                "Latitude": 46.36,
                "Longitude": 22.83
            },
            {
                "Name": "Stertesti",
                "Subregion": "Alba",
                "Latitude": 46.35,
                "Longitude": 22.84
            },
            {
                "Name": "Tarsa",
                "Subregion": "Mehedinti",
                "Latitude": 44.57,
                "Longitude": 23.3
            },
            {
                "Name": "Tarsa-Plai",
                "Subregion": "Alba",
                "Latitude": 46.39,
                "Longitude": 22.78
            },
            {
                "Name": "Valea Maciului",
                "Subregion": "Alba",
                "Latitude": 46.34,
                "Longitude": 22.83
            },
            {
                "Name": "Valea Utului",
                "Subregion": "Alba",
                "Latitude": 46.35,
                "Longitude": 22.82
            },
            {
                "Name": "Verdesti",
                "Subregion": "Alba",
                "Latitude": 46.38,
                "Longitude": 22.79
            },
            {
                "Name": "Vidrisoara",
                "Subregion": "Alba",
                "Latitude": 46.34,
                "Longitude": 22.83
            },
            {
                "Name": "Baia de Aries",
                "Subregion": "Alba",
                "Latitude": 46.38,
                "Longitude": 23.28
            },
            {
                "Name": "Brazesti",
                "Subregion": "Alba",
                "Latitude": 46.4,
                "Longitude": 23.32
            },
            {
                "Name": "Cioara de Sus",
                "Subregion": "Alba",
                "Latitude": 46.38,
                "Longitude": 23.32
            },
            {
                "Name": "Muncelu",
                "Subregion": "Vrancea",
                "Latitude": 45.95,
                "Longitude": 27.03
            },
            {
                "Name": "Sartas",
                "Subregion": "Alba",
                "Latitude": 46.39,
                "Longitude": 23.3
            },
            {
                "Name": "Simulesti",
                "Subregion": "Alba",
                "Latitude": 46.35,
                "Longitude": 23.32
            },
            {
                "Name": "Berghin",
                "Subregion": "Alba",
                "Latitude": 46.08,
                "Longitude": 23.74
            },
            {
                "Name": "Ghirbom",
                "Subregion": "Alba",
                "Latitude": 46.03,
                "Longitude": 23.72
            },
            {
                "Name": "Henig",
                "Subregion": "Alba",
                "Latitude": 46.11,
                "Longitude": 23.73
            },
            {
                "Name": "Straja",
                "Subregion": "Suceava",
                "Latitude": 47.92,
                "Longitude": 25.55
            },
            {
                "Name": "Bistra",
                "Subregion": "Maramures",
                "Latitude": 47.87,
                "Longitude": 24.19
            },
            {
                "Name": "Aronesti",
                "Subregion": "Alba",
                "Latitude": 46.44,
                "Longitude": 23.14
            },
            {
                "Name": "Balesti",
                "Subregion": "Vrancea",
                "Latitude": 45.44,
                "Longitude": 27.24
            },
            {
                "Name": "Balesti-Catun",
                "Subregion": "Alba",
                "Latitude": 46.42,
                "Longitude": 23.1
            },
            {
                "Name": "Barlesti",
                "Subregion": "Iasi",
                "Latitude": 47.25,
                "Longitude": 27.26
            },
            {
                "Name": "Cheleteni",
                "Subregion": "Alba",
                "Latitude": 46.45,
                "Longitude": 23.09
            },
            {
                "Name": "Ciuldesti",
                "Subregion": "Alba",
                "Latitude": 46.39,
                "Longitude": 23.11
            },
            {
                "Name": "Cretesti",
                "Subregion": "Vaslui",
                "Latitude": 46.63,
                "Longitude": 27.96
            },
            {
                "Name": "Dealu Muntelui",
                "Subregion": "Alba",
                "Latitude": 46.39,
                "Longitude": 23.12
            },
            {
                "Name": "Dambureni",
                "Subregion": "Alba",
                "Latitude": 46.42,
                "Longitude": 23.08
            },
            {
                "Name": "Durasti",
                "Subregion": "Alba",
                "Latitude": 46.43,
                "Longitude": 23.1
            },
            {
                "Name": "Ganesti",
                "Subregion": "Valcea",
                "Latitude": 44.72,
                "Longitude": 23.89
            },
            {
                "Name": "Garde",
                "Subregion": "Alba",
                "Latitude": 46.39,
                "Longitude": 23.14
            },
            {
                "Name": "Hodisesti",
                "Subregion": "Alba",
                "Latitude": 46.4,
                "Longitude": 23.09
            },
            {
                "Name": "Hudricesti",
                "Subregion": "Alba",
                "Latitude": 46.39,
                "Longitude": 23.1
            },
            {
                "Name": "Lipaia",
                "Subregion": "Alba",
                "Latitude": 46.39,
                "Longitude": 23.09
            },
            {
                "Name": "Lunca Larga",
                "Subregion": "Alba",
                "Latitude": 46.53,
                "Longitude": 23.43
            },
            {
                "Name": "Lunca Merilor",
                "Subregion": "Alba",
                "Latitude": 46.37,
                "Longitude": 23.1
            },
            {
                "Name": "Mihaiesti",
                "Subregion": "Suceava",
                "Latitude": 47.52,
                "Longitude": 26.22
            },
            {
                "Name": "Namas",
                "Subregion": "Alba",
                "Latitude": 46.4,
                "Longitude": 23.13
            },
            {
                "Name": "Novacesti",
                "Subregion": "Prahova",
                "Latitude": 45.03,
                "Longitude": 25.78
            },
            {
                "Name": "Perjesti",
                "Subregion": "Alba",
                "Latitude": 46.35,
                "Longitude": 23.15
            },
            {
                "Name": "Poiana",
                "Subregion": "Vrancea",
                "Latitude": 45.88,
                "Longitude": 26.76
            },
            {
                "Name": "Poiu",
                "Subregion": "Alba",
                "Latitude": 46.39,
                "Longitude": 23.1
            },
            {
                "Name": "Ratitis",
                "Subregion": "Alba",
                "Latitude": 46.41,
                "Longitude": 23.09
            },
            {
                "Name": "Runcuri",
                "Subregion": "Alba",
                "Latitude": 46.41,
                "Longitude": 23.16
            },
            {
                "Name": "Salagesti",
                "Subregion": "Alba",
                "Latitude": 46.4,
                "Longitude": 23.08
            },
            {
                "Name": "Stefanca",
                "Subregion": "Mures",
                "Latitude": 46.69,
                "Longitude": 24.23
            },
            {
                "Name": "Tolacesti",
                "Subregion": "Alba",
                "Latitude": 46.35,
                "Longitude": 23.14
            },
            {
                "Name": "Tomnatec",
                "Subregion": "Hunedoara",
                "Latitude": 46.28,
                "Longitude": 22.8
            },
            {
                "Name": "Trisoresti",
                "Subregion": "Alba",
                "Latitude": 46.41,
                "Longitude": 23.13
            },
            {
                "Name": "Taranesti",
                "Subregion": "Alba",
                "Latitude": 46.4,
                "Longitude": 23.12
            },
            {
                "Name": "Varsi-Rontu",
                "Subregion": "Alba",
                "Latitude": 46.34,
                "Longitude": 23.16
            },
            {
                "Name": "Varsii Mari",
                "Subregion": "Alba",
                "Latitude": 46.34,
                "Longitude": 23.13
            },
            {
                "Name": "Varsii Mici",
                "Subregion": "Alba",
                "Latitude": 46.35,
                "Longitude": 23.12
            },
            {
                "Name": "Blandiana",
                "Subregion": "Alba",
                "Latitude": 45.98,
                "Longitude": 23.39
            },
            {
                "Name": "Acmariu",
                "Subregion": "Alba",
                "Latitude": 45.97,
                "Longitude": 23.36
            },
            {
                "Name": "Ibru",
                "Subregion": "Alba",
                "Latitude": 46.02,
                "Longitude": 23.36
            },
            {
                "Name": "Poieni",
                "Subregion": "Timis",
                "Latitude": 45.8,
                "Longitude": 22.45
            },
            {
                "Name": "Racatau",
                "Subregion": "Alba",
                "Latitude": 46.03,
                "Longitude": 23.33
            },
            {
                "Name": "Bucium",
                "Subregion": "Neamt",
                "Latitude": 46.78,
                "Longitude": 27.07
            },
            {
                "Name": "Anghelesti",
                "Subregion": "Vrancea",
                "Latitude": 46.08,
                "Longitude": 27.06
            },
            {
                "Name": "Bisericani",
                "Subregion": "Neamt",
                "Latitude": 46.96,
                "Longitude": 26.24
            },
            {
                "Name": "Bucium-Sat",
                "Subregion": "Alba",
                "Latitude": 46.26,
                "Longitude": 23.12
            },
            {
                "Name": "Cerbu",
                "Subregion": "Vrancea",
                "Latitude": 45.59,
                "Longitude": 26.71
            },
            {
                "Name": "Ciuculesti",
                "Subregion": "Alba",
                "Latitude": 46.26,
                "Longitude": 23.19
            },
            {
                "Name": "Coleseni",
                "Subregion": "Alba",
                "Latitude": 46.25,
                "Longitude": 23.14
            },
            {
                "Name": "Dogaresti",
                "Subregion": "Alba",
                "Latitude": 46.27,
                "Longitude": 23.13
            },
            {
                "Name": "Feresti",
                "Subregion": "Vaslui",
                "Latitude": 46.78,
                "Longitude": 27.7
            },
            {
                "Name": "Gura Izbitei",
                "Subregion": "Alba",
                "Latitude": 46.25,
                "Longitude": 23.16
            },
            {
                "Name": "Helesti",
                "Subregion": "Alba",
                "Latitude": 46.28,
                "Longitude": 23.14
            },
            {
                "Name": "Izbicioara",
                "Subregion": "Alba",
                "Latitude": 46.24,
                "Longitude": 23.17
            },
            {
                "Name": "Izbita",
                "Subregion": "Alba",
                "Latitude": 46.24,
                "Longitude": 23.14
            },
            {
                "Name": "Jurcuiesti",
                "Subregion": "Alba",
                "Latitude": 46.3,
                "Longitude": 23.18
            },
            {
                "Name": "Lupulesti",
                "Subregion": "Alba",
                "Latitude": 46.25,
                "Longitude": 23.19
            },
            {
                "Name": "Magura",
                "Subregion": "Vrancea",
                "Latitude": 45.6,
                "Longitude": 26.74
            },
            {
                "Name": "Muntari",
                "Subregion": "Alba",
                "Latitude": 46.29,
                "Longitude": 23.15
            },
            {
                "Name": "Petreni",
                "Subregion": "Hunedoara",
                "Latitude": 45.79,
                "Longitude": 23.03
            },
            {
                "Name": "Stalnisoara",
                "Subregion": "Alba",
                "Latitude": 46.24,
                "Longitude": 23.21
            },
            {
                "Name": "Valea Abruzel",
                "Subregion": "Alba",
                "Latitude": 46.26,
                "Longitude": 23.14
            },
            {
                "Name": "Valea Alba",
                "Subregion": "Neamt",
                "Latitude": 47.08,
                "Longitude": 26.53
            },
            {
                "Name": "Valea Cerbului",
                "Subregion": "Alba",
                "Latitude": 46.24,
                "Longitude": 23.12
            },
            {
                "Name": "Valea Negrilesii",
                "Subregion": "Alba",
                "Latitude": 46.24,
                "Longitude": 23.22
            },
            {
                "Name": "Valea Poienii",
                "Subregion": "Prahova",
                "Latitude": 44.96,
                "Longitude": 26.17
            },
            {
                "Name": "Valea Sesii",
                "Subregion": "Alba",
                "Latitude": 46.38,
                "Longitude": 23.24
            },
            {
                "Name": "Valeni",
                "Subregion": "Vrancea",
                "Latitude": 45.91,
                "Longitude": 27.06
            },
            {
                "Name": "Valcea",
                "Subregion": "Brasov",
                "Latitude": 45.75,
                "Longitude": 25.18
            },
            {
                "Name": "Cenade",
                "Subregion": "Alba",
                "Latitude": 46.06,
                "Longitude": 24.01
            },
            {
                "Name": "Capu Dealului",
                "Subregion": "Valcea",
                "Latitude": 44.99,
                "Longitude": 24.24
            },
            {
                "Name": "Gorgan",
                "Subregion": "Alba",
                "Latitude": 46.09,
                "Longitude": 24.01
            },
            {
                "Name": "Cergau Mare",
                "Subregion": "Alba",
                "Latitude": 46.1,
                "Longitude": 23.92
            },
            {
                "Name": "Cergau Mic",
                "Subregion": "Alba",
                "Latitude": 46.08,
                "Longitude": 23.94
            },
            {
                "Name": "Lupu",
                "Subregion": "Alba",
                "Latitude": 46.1,
                "Longitude": 23.97
            },
            {
                "Name": "Ceru-Bacainti",
                "Subregion": "Alba",
                "Latitude": 45.97,
                "Longitude": 23.27
            },
            {
                "Name": "Bolovanesti",
                "Subregion": "Arges",
                "Latitude": 45.23,
                "Longitude": 24.73
            },
            {
                "Name": "Bulbuc",
                "Subregion": "Alba",
                "Latitude": 46.02,
                "Longitude": 23.29
            },
            {
                "Name": "Cucuta",
                "Subregion": "Alba",
                "Latitude": 45.99,
                "Longitude": 23.26
            },
            {
                "Name": "Curpeni",
                "Subregion": "Alba",
                "Latitude": 45.98,
                "Longitude": 23.28
            },
            {
                "Name": "Dumbravita",
                "Subregion": "Timis",
                "Latitude": 45.8,
                "Longitude": 21.25
            },
            {
                "Name": "Fantanele",
                "Subregion": "Vaslui",
                "Latitude": 46.5,
                "Longitude": 27.45
            },
            {
                "Name": "Grosi",
                "Subregion": "Valcea",
                "Latitude": 45.0,
                "Longitude": 24.04
            },
            {
                "Name": "Valea Mare",
                "Subregion": "Valcea",
                "Latitude": 44.67,
                "Longitude": 24.0
            },
            {
                "Name": "Viezuri",
                "Subregion": "Alba",
                "Latitude": 46.0,
                "Longitude": 23.29
            },
            {
                "Name": "Cetatea de Balta",
                "Subregion": "Alba",
                "Latitude": 46.25,
                "Longitude": 24.17
            },
            {
                "Name": "Craciunelu de Sus",
                "Subregion": "Alba",
                "Latitude": 46.17,
                "Longitude": 24.18
            },
            {
                "Name": "Santamarie",
                "Subregion": "Alba",
                "Latitude": 46.24,
                "Longitude": 24.15
            },
            {
                "Name": "Tatarlaua",
                "Subregion": "Alba",
                "Latitude": 46.2,
                "Longitude": 24.17
            },
            {
                "Name": "Ciuruleasa",
                "Subregion": "Alba",
                "Latitude": 46.26,
                "Longitude": 23.03
            },
            {
                "Name": "Bidigesti",
                "Subregion": "Alba",
                "Latitude": 46.26,
                "Longitude": 23.02
            },
            {
                "Name": "Bodresti",
                "Subregion": "Alba",
                "Latitude": 46.27,
                "Longitude": 22.97
            },
            {
                "Name": "Boglesti",
                "Subregion": "Alba",
                "Latitude": 46.26,
                "Longitude": 23.01
            },
            {
                "Name": "Buninginea",
                "Subregion": "Alba",
                "Latitude": 46.23,
                "Longitude": 23.04
            },
            {
                "Name": "Ghedulesti",
                "Subregion": "Alba",
                "Latitude": 46.24,
                "Longitude": 23.07
            },
            {
                "Name": "Matisesti",
                "Subregion": "Alba",
                "Latitude": 46.51,
                "Longitude": 22.9
            },
            {
                "Name": "Moraresti",
                "Subregion": "Vrancea",
                "Latitude": 45.74,
                "Longitude": 26.76
            },
            {
                "Name": "Vulcan",
                "Subregion": "Mures",
                "Latitude": 46.15,
                "Longitude": 24.85
            },
            {
                "Name": "Calnic",
                "Subregion": "Gorj",
                "Latitude": 44.96,
                "Longitude": 23.07
            },
            {
                "Name": "Cut",
                "Subregion": "Neamt",
                "Latitude": 46.88,
                "Longitude": 26.42
            },
            {
                "Name": "Deal",
                "Subregion": "Alba",
                "Latitude": 45.86,
                "Longitude": 23.63
            },
            {
                "Name": "Cricau",
                "Subregion": "Alba",
                "Latitude": 46.18,
                "Longitude": 23.57
            },
            {
                "Name": "Craiva",
                "Subregion": "Arad",
                "Latitude": 46.58,
                "Longitude": 21.98
            },
            {
                "Name": "Tibru",
                "Subregion": "Alba",
                "Latitude": 46.2,
                "Longitude": 23.56
            },
            {
                "Name": "Craciunelu de Jos",
                "Subregion": "Alba",
                "Latitude": 46.17,
                "Longitude": 23.84
            },
            {
                "Name": "Bucerdea Granoasa",
                "Subregion": "Alba",
                "Latitude": 46.19,
                "Longitude": 23.84
            },
            {
                "Name": "Cornu",
                "Subregion": "Dolj",
                "Latitude": 44.23,
                "Longitude": 23.28
            },
            {
                "Name": "Padure",
                "Subregion": "Alba",
                "Latitude": 46.2,
                "Longitude": 23.88
            },
            {
                "Name": "Panca",
                "Subregion": "Alba",
                "Latitude": 46.22,
                "Longitude": 23.89
            },
            {
                "Name": "Daia Romana",
                "Subregion": "Alba",
                "Latitude": 46.01,
                "Longitude": 23.67
            },
            {
                "Name": "Dostat",
                "Subregion": "Alba",
                "Latitude": 45.97,
                "Longitude": 23.84
            },
            {
                "Name": "Boz",
                "Subregion": "Hunedoara",
                "Latitude": 45.95,
                "Longitude": 22.75
            },
            {
                "Name": "Dealu Dostatului",
                "Subregion": "Alba",
                "Latitude": 45.96,
                "Longitude": 23.85
            },
            {
                "Name": "Farau",
                "Subregion": "Alba",
                "Latitude": 46.34,
                "Longitude": 24.01
            },
            {
                "Name": "Heria",
                "Subregion": "Alba",
                "Latitude": 46.36,
                "Longitude": 23.98
            },
            {
                "Name": "Medves",
                "Subregion": "Alba",
                "Latitude": 46.31,
                "Longitude": 24.06
            },
            {
                "Name": "Sanbenedic",
                "Subregion": "Alba",
                "Latitude": 46.31,
                "Longitude": 24.05
            },
            {
                "Name": "Silea",
                "Subregion": "Valcea",
                "Latitude": 44.77,
                "Longitude": 24.24
            },
            {
                "Name": "Galda de Jos",
                "Subregion": "Alba",
                "Latitude": 46.18,
                "Longitude": 23.62
            },
            {
                "Name": "Benic",
                "Subregion": "Alba",
                "Latitude": 46.21,
                "Longitude": 23.59
            },
            {
                "Name": "Cetea",
                "Subregion": "Bihor",
                "Latitude": 47.02,
                "Longitude": 22.58
            },
            {
                "Name": "Galda de Sus",
                "Subregion": "Alba",
                "Latitude": 46.22,
                "Longitude": 23.56
            },
            {
                "Name": "Lupseni",
                "Subregion": "Alba",
                "Latitude": 46.22,
                "Longitude": 23.55
            },
            {
                "Name": "Mesentea",
                "Subregion": "Alba",
                "Latitude": 46.19,
                "Longitude": 23.6
            },
            {
                "Name": "Oiejdea",
                "Subregion": "Alba",
                "Latitude": 46.16,
                "Longitude": 23.63
            },
            {
                "Name": "Poiana Galdei",
                "Subregion": "Alba",
                "Latitude": 46.24,
                "Longitude": 23.53
            },
            {
                "Name": "Raicani",
                "Subregion": "Alba",
                "Latitude": 46.27,
                "Longitude": 23.5
            },
            {
                "Name": "Zagris",
                "Subregion": "Alba",
                "Latitude": 46.23,
                "Longitude": 23.54
            },
            {
                "Name": "Garbova",
                "Subregion": "Alba",
                "Latitude": 45.86,
                "Longitude": 23.72
            },
            {
                "Name": "Carpinis",
                "Subregion": "Timis",
                "Latitude": 45.79,
                "Longitude": 20.91
            },
            {
                "Name": "Reciu",
                "Subregion": "Alba",
                "Latitude": 45.87,
                "Longitude": 23.67
            },
            {
                "Name": "Garda de Sus",
                "Subregion": "Alba",
                "Latitude": 46.46,
                "Longitude": 22.83
            },
            {
                "Name": "Biharia",
                "Subregion": "Bihor",
                "Latitude": 47.15,
                "Longitude": 21.92
            },
            {
                "Name": "Dealu Frumos",
                "Subregion": "Sibiu",
                "Latitude": 45.98,
                "Longitude": 24.7
            },
            {
                "Name": "Dealu Ordancusii",
                "Subregion": "Alba",
                "Latitude": 46.51,
                "Longitude": 22.84
            },
            {
                "Name": "Dobresti",
                "Subregion": "Valcea",
                "Latitude": 44.93,
                "Longitude": 24.44
            },
            {
                "Name": "Ghetari",
                "Subregion": "Alba",
                "Latitude": 46.49,
                "Longitude": 22.82
            },
            {
                "Name": "Garda Seaca",
                "Subregion": "Alba",
                "Latitude": 46.48,
                "Longitude": 22.81
            },
            {
                "Name": "Hanasesti",
                "Subregion": "Alba",
                "Latitude": 46.39,
                "Longitude": 22.85
            },
            {
                "Name": "Huzaresti",
                "Subregion": "Alba",
                "Latitude": 46.45,
                "Longitude": 22.84
            },
            {
                "Name": "Mununa",
                "Subregion": "Alba",
                "Latitude": 46.47,
                "Longitude": 22.84
            },
            {
                "Name": "Ocoale",
                "Subregion": "Alba",
                "Latitude": 46.51,
                "Longitude": 22.81
            },
            {
                "Name": "Plisti",
                "Subregion": "Alba",
                "Latitude": 46.49,
                "Longitude": 22.8
            },
            {
                "Name": "Scoarta",
                "Subregion": "Gorj",
                "Latitude": 45.02,
                "Longitude": 23.47
            },
            {
                "Name": "Sucesti",
                "Subregion": "Alba",
                "Latitude": 46.44,
                "Longitude": 22.8
            },
            {
                "Name": "Snide",
                "Subregion": "Alba",
                "Latitude": 46.45,
                "Longitude": 22.79
            },
            {
                "Name": "Hoparta",
                "Subregion": "Alba",
                "Latitude": 46.32,
                "Longitude": 23.87
            },
            {
                "Name": "Silivas",
                "Subregion": "Cluj",
                "Latitude": 46.99,
                "Longitude": 23.87
            },
            {
                "Name": "Spalnaca",
                "Subregion": "Alba",
                "Latitude": 46.34,
                "Longitude": 23.91
            },
            {
                "Name": "Turdas",
                "Subregion": "Hunedoara",
                "Latitude": 45.85,
                "Longitude": 23.12
            },
            {
                "Name": "Vama Seaca",
                "Subregion": "Alba",
                "Latitude": 46.35,
                "Longitude": 23.94
            },
            {
                "Name": "Horea",
                "Subregion": "Satu Mare",
                "Latitude": 47.68,
                "Longitude": 22.24
            },
            {
                "Name": "Baba",
                "Subregion": "Maramures",
                "Latitude": 47.34,
                "Longitude": 23.75
            },
            {
                "Name": "Butesti",
                "Subregion": "Teleorman",
                "Latitude": 44.39,
                "Longitude": 25.38
            },
            {
                "Name": "Darlesti",
                "Subregion": "Alba",
                "Latitude": 46.52,
                "Longitude": 22.92
            },
            {
                "Name": "Fericet",
                "Subregion": "Alba",
                "Latitude": 46.49,
                "Longitude": 22.94
            },
            {
                "Name": "Giurgiut",
                "Subregion": "Alba",
                "Latitude": 46.52,
                "Longitude": 22.95
            },
            {
                "Name": "Mancesti",
                "Subregion": "Alba",
                "Latitude": 46.49,
                "Longitude": 22.96
            },
            {
                "Name": "Niculesti",
                "Subregion": "Dambovita",
                "Latitude": 44.68,
                "Longitude": 25.94
            },
            {
                "Name": "Patrusesti",
                "Subregion": "Alba",
                "Latitude": 46.52,
                "Longitude": 22.98
            },
            {
                "Name": "Petreasa",
                "Subregion": "Bihor",
                "Latitude": 46.71,
                "Longitude": 22.35
            },
            {
                "Name": "Preluca",
                "Subregion": "Neamt",
                "Latitude": 46.93,
                "Longitude": 26.24
            },
            {
                "Name": "Teiu",
                "Subregion": "Valcea",
                "Latitude": 44.9,
                "Longitude": 24.28
            },
            {
                "Name": "Trifesti",
                "Subregion": "Neamt",
                "Latitude": 46.9,
                "Longitude": 26.86
            },
            {
                "Name": "Zanzesti",
                "Subregion": "Alba",
                "Latitude": 46.53,
                "Longitude": 22.96
            },
            {
                "Name": "Ighiu",
                "Subregion": "Harghita",
                "Latitude": 46.2,
                "Longitude": 25.29
            },
            {
                "Name": "Bucerdea Vanoasa",
                "Subregion": "Alba",
                "Latitude": 46.16,
                "Longitude": 23.53
            },
            {
                "Name": "Ighiel",
                "Subregion": "Alba",
                "Latitude": 46.15,
                "Longitude": 23.48
            },
            {
                "Name": "Sard",
                "Subregion": "Alba",
                "Latitude": 46.13,
                "Longitude": 23.54
            },
            {
                "Name": "Telna",
                "Subregion": "Alba",
                "Latitude": 46.16,
                "Longitude": 23.5
            },
            {
                "Name": "Intregalde",
                "Subregion": "Alba",
                "Latitude": 46.24,
                "Longitude": 23.41
            },
            {
                "Name": "Dealu Geoagiului",
                "Subregion": "Alba",
                "Latitude": 46.28,
                "Longitude": 23.43
            },
            {
                "Name": "Ghioncani",
                "Subregion": "Alba",
                "Latitude": 46.24,
                "Longitude": 23.33
            },
            {
                "Name": "Iliesti",
                "Subregion": "Gorj",
                "Latitude": 44.64,
                "Longitude": 23.4
            },
            {
                "Name": "Ivanis",
                "Subregion": "Alba",
                "Latitude": 46.23,
                "Longitude": 23.39
            },
            {
                "Name": "Marinesti",
                "Subregion": "Gorj",
                "Latitude": 44.69,
                "Longitude": 23.7
            },
            {
                "Name": "Modolesti",
                "Subregion": "Alba",
                "Latitude": 46.38,
                "Longitude": 22.88
            },
            {
                "Name": "Necrilesti",
                "Subregion": "Alba",
                "Latitude": 46.21,
                "Longitude": 23.37
            },
            {
                "Name": "Popesti",
                "Subregion": "Vrancea",
                "Latitude": 45.6,
                "Longitude": 27.08
            },
            {
                "Name": "Sfarcea",
                "Subregion": "Dolj",
                "Latitude": 44.49,
                "Longitude": 23.55
            },
            {
                "Name": "Tecsesti",
                "Subregion": "Alba",
                "Latitude": 46.27,
                "Longitude": 23.48
            },
            {
                "Name": "Jidvei",
                "Subregion": "Alba",
                "Latitude": 46.22,
                "Longitude": 24.11
            },
            {
                "Name": "Balcaciu",
                "Subregion": "Alba",
                "Latitude": 46.19,
                "Longitude": 24.06
            },
            {
                "Name": "Capalna de Jos",
                "Subregion": "Alba",
                "Latitude": 46.24,
                "Longitude": 24.11
            },
            {
                "Name": "Feisa",
                "Subregion": "Alba",
                "Latitude": 46.23,
                "Longitude": 24.14
            },
            {
                "Name": "Veseus",
                "Subregion": "Alba",
                "Latitude": 46.27,
                "Longitude": 24.14
            },
            {
                "Name": "Livezile",
                "Subregion": "Vrancea",
                "Latitude": 45.95,
                "Longitude": 26.84
            },
            {
                "Name": "Poiana Aiudului",
                "Subregion": "Alba",
                "Latitude": 46.36,
                "Longitude": 23.61
            },
            {
                "Name": "Valisoara",
                "Subregion": "Salaj",
                "Latitude": 47.38,
                "Longitude": 23.4
            },
            {
                "Name": "Lopadea Noua",
                "Subregion": "Alba",
                "Latitude": 46.29,
                "Longitude": 23.82
            },
            {
                "Name": "Asinip",
                "Subregion": "Alba",
                "Latitude": 46.3,
                "Longitude": 23.89
            },
            {
                "Name": "Beta",
                "Subregion": "Harghita",
                "Latitude": 46.28,
                "Longitude": 25.23
            },
            {
                "Name": "Bagau",
                "Subregion": "Alba",
                "Latitude": 46.31,
                "Longitude": 23.79
            },
            {
                "Name": "Cicard",
                "Subregion": "Alba",
                "Latitude": 46.27,
                "Longitude": 23.91
            },
            {
                "Name": "Ciuguzel",
                "Subregion": "Alba",
                "Latitude": 46.28,
                "Longitude": 23.86
            },
            {
                "Name": "Ocnisoara",
                "Subregion": "Alba",
                "Latitude": 46.25,
                "Longitude": 23.88
            },
            {
                "Name": "Odverem",
                "Subregion": "Alba",
                "Latitude": 46.26,
                "Longitude": 23.84
            },
            {
                "Name": "Lunca Muresului",
                "Subregion": "Mures",
                "Latitude": 46.87,
                "Longitude": 24.79
            },
            {
                "Name": "Gura Ariesului",
                "Subregion": "Alba",
                "Latitude": 46.43,
                "Longitude": 23.96
            },
            {
                "Name": "Lupsa",
                "Subregion": "Brasov",
                "Latitude": 45.94,
                "Longitude": 25.3
            },
            {
                "Name": "Bardesti",
                "Subregion": "Mures",
                "Latitude": 46.59,
                "Longitude": 24.51
            },
            {
                "Name": "Barzan",
                "Subregion": "Alba",
                "Latitude": 46.36,
                "Longitude": 23.24
            },
            {
                "Name": "Curmatura",
                "Subregion": "Prahova",
                "Latitude": 45.15,
                "Longitude": 26.13
            },
            {
                "Name": "Dupa Deal",
                "Subregion": "Mures",
                "Latitude": 46.52,
                "Longitude": 24.25
            },
            {
                "Name": "Geamana",
                "Subregion": "Valcea",
                "Latitude": 44.93,
                "Longitude": 24.38
            },
            {
                "Name": "Hadarau",
                "Subregion": "Alba",
                "Latitude": 46.36,
                "Longitude": 23.21
            },
            {
                "Name": "Holobani",
                "Subregion": "Alba",
                "Latitude": 46.32,
                "Longitude": 23.23
            },
            {
                "Name": "Lazuri",
                "Subregion": "Salaj",
                "Latitude": 47.1,
                "Longitude": 22.75
            },
            {
                "Name": "Lunca",
                "Subregion": "Valcea",
                "Latitude": 45.17,
                "Longitude": 24.37
            },
            {
                "Name": "Manastire",
                "Subregion": "Timis",
                "Latitude": 45.41,
                "Longitude": 21.33
            },
            {
                "Name": "Margaia",
                "Subregion": "Alba",
                "Latitude": 46.36,
                "Longitude": 23.23
            },
            {
                "Name": "Musca",
                "Subregion": "Alba",
                "Latitude": 46.36,
                "Longitude": 23.17
            },
            {
                "Name": "Pitiga",
                "Subregion": "Alba",
                "Latitude": 46.37,
                "Longitude": 23.17
            },
            {
                "Name": "Parau-Carbunari",
                "Subregion": "Alba",
                "Latitude": 46.35,
                "Longitude": 23.21
            },
            {
                "Name": "Posogani",
                "Subregion": "Alba",
                "Latitude": 46.36,
                "Longitude": 23.2
            },
            {
                "Name": "Sasa",
                "Subregion": "Salaj",
                "Latitude": 47.38,
                "Longitude": 23.64
            },
            {
                "Name": "Valea Holhorii",
                "Subregion": "Alba",
                "Latitude": 46.32,
                "Longitude": 23.2
            },
            {
                "Name": "Valea Lupsii",
                "Subregion": "Alba",
                "Latitude": 46.38,
                "Longitude": 23.23
            },
            {
                "Name": "Vai",
                "Subregion": "Alba",
                "Latitude": 46.35,
                "Longitude": 23.21
            },
            {
                "Name": "Vinta",
                "Subregion": "Alba",
                "Latitude": 46.32,
                "Longitude": 23.23
            },
            {
                "Name": "Metes",
                "Subregion": "Alba",
                "Latitude": 46.1,
                "Longitude": 23.42
            },
            {
                "Name": "Ampoita",
                "Subregion": "Alba",
                "Latitude": 46.12,
                "Longitude": 23.45
            },
            {
                "Name": "Isca",
                "Subregion": "Alba",
                "Latitude": 46.1,
                "Longitude": 23.41
            },
            {
                "Name": "Lunca Ampoitei",
                "Subregion": "Alba",
                "Latitude": 46.14,
                "Longitude": 23.39
            },
            {
                "Name": "Lunca Metesului",
                "Subregion": "Alba",
                "Latitude": 46.14,
                "Longitude": 23.37
            },
            {
                "Name": "Padurea",
                "Subregion": "Mures",
                "Latitude": 46.63,
                "Longitude": 24.18
            },
            {
                "Name": "Poiana Ampoiului",
                "Subregion": "Alba",
                "Latitude": 46.09,
                "Longitude": 23.39
            },
            {
                "Name": "Poiana Ursului",
                "Subregion": "Alba",
                "Latitude": 46.07,
                "Longitude": 23.44
            },
            {
                "Name": "Presaca Ampoiului",
                "Subregion": "Alba",
                "Latitude": 46.1,
                "Longitude": 23.33
            },
            {
                "Name": "Remetea",
                "Subregion": "Mures",
                "Latitude": 46.57,
                "Longitude": 24.52
            },
            {
                "Name": "Tauti",
                "Subregion": "Cluj",
                "Latitude": 46.71,
                "Longitude": 23.51
            },
            {
                "Name": "Mihalt",
                "Subregion": "Alba",
                "Latitude": 46.16,
                "Longitude": 23.73
            },
            {
                "Name": "Cistei",
                "Subregion": "Alba",
                "Latitude": 46.19,
                "Longitude": 23.75
            },
            {
                "Name": "Obreja",
                "Subregion": "Gorj",
                "Latitude": 45.11,
                "Longitude": 23.26
            },
            {
                "Name": "Zaries",
                "Subregion": "Alba",
                "Latitude": 46.18,
                "Longitude": 23.71
            },
            {
                "Name": "Miraslau",
                "Subregion": "Alba",
                "Latitude": 46.37,
                "Longitude": 23.71
            },
            {
                "Name": "Cicau",
                "Subregion": "Alba",
                "Latitude": 46.4,
                "Longitude": 23.68
            },
            {
                "Name": "Decea",
                "Subregion": "Alba",
                "Latitude": 46.38,
                "Longitude": 23.76
            },
            {
                "Name": "Lopadea Veche",
                "Subregion": "Alba",
                "Latitude": 46.38,
                "Longitude": 23.66
            },
            {
                "Name": "Ormenis",
                "Subregion": "Mures",
                "Latitude": 46.33,
                "Longitude": 24.55
            },
            {
                "Name": "Rachis",
                "Subregion": "Alba",
                "Latitude": 46.39,
                "Longitude": 23.63
            },
            {
                "Name": "Mogos",
                "Subregion": "Alba",
                "Latitude": 46.28,
                "Longitude": 23.28
            },
            {
                "Name": "Barbesti",
                "Subregion": "Alba",
                "Latitude": 46.28,
                "Longitude": 23.33
            },
            {
                "Name": "Barlesti-Catun",
                "Subregion": "Alba",
                "Latitude": 46.29,
                "Longitude": 23.38
            },
            {
                "Name": "Barzogani",
                "Subregion": "Alba",
                "Latitude": 46.31,
                "Longitude": 23.35
            },
            {
                "Name": "Bocesti",
                "Subregion": "Alba",
                "Latitude": 46.28,
                "Longitude": 23.35
            },
            {
                "Name": "Bogdanesti",
                "Subregion": "Valcea",
                "Latitude": 45.14,
                "Longitude": 24.03
            },
            {
                "Name": "Cojocani",
                "Subregion": "Alba",
                "Latitude": 46.28,
                "Longitude": 23.37
            },
            {
                "Name": "Cristesti",
                "Subregion": "Vaslui",
                "Latitude": 46.47,
                "Longitude": 27.46
            },
            {
                "Name": "Mamaligani",
                "Subregion": "Alba",
                "Latitude": 46.29,
                "Longitude": 23.28
            },
            {
                "Name": "Negresti",
                "Subregion": "Vaslui",
                "Latitude": 46.83,
                "Longitude": 27.46
            },
            {
                "Name": "Oncesti",
                "Subregion": "Maramures",
                "Latitude": 47.85,
                "Longitude": 23.98
            },
            {
                "Name": "Poienile-Mogos",
                "Subregion": "Alba",
                "Latitude": 46.28,
                "Longitude": 23.24
            },
            {
                "Name": "Tomesti",
                "Subregion": "Vaslui",
                "Latitude": 46.36,
                "Longitude": 27.58
            },
            {
                "Name": "Valea Barlutesti",
                "Subregion": "Alba",
                "Latitude": 46.3,
                "Longitude": 23.27
            },
            {
                "Name": "Valea Barnii",
                "Subregion": "Alba",
                "Latitude": 46.27,
                "Longitude": 23.34
            },
            {
                "Name": "Valea Cocesti",
                "Subregion": "Alba",
                "Latitude": 46.3,
                "Longitude": 23.29
            },
            {
                "Name": "Valea Giogesti",
                "Subregion": "Alba",
                "Latitude": 46.31,
                "Longitude": 23.28
            },
            {
                "Name": "Valea Mlacii",
                "Subregion": "Alba",
                "Latitude": 46.23,
                "Longitude": 23.28
            },
            {
                "Name": "Valea Tupilor",
                "Subregion": "Alba",
                "Latitude": 46.26,
                "Longitude": 23.26
            },
            {
                "Name": "Noslac",
                "Subregion": "Alba",
                "Latitude": 46.41,
                "Longitude": 23.93
            },
            {
                "Name": "Captalan",
                "Subregion": "Alba",
                "Latitude": 46.41,
                "Longitude": 23.94
            },
            {
                "Name": "Copand",
                "Subregion": "Alba",
                "Latitude": 46.42,
                "Longitude": 23.98
            },
            {
                "Name": "Gabud",
                "Subregion": "Alba",
                "Latitude": 46.41,
                "Longitude": 24.01
            },
            {
                "Name": "Stana de Mures",
                "Subregion": "Alba",
                "Latitude": 46.43,
                "Longitude": 24.0
            },
            {
                "Name": "Valea Ciuciului",
                "Subregion": "Alba",
                "Latitude": 46.41,
                "Longitude": 23.99
            },
            {
                "Name": "Ocolis",
                "Subregion": "Maramures",
                "Latitude": 47.6,
                "Longitude": 23.58
            },
            {
                "Name": "Vidolm",
                "Subregion": "Alba",
                "Latitude": 46.48,
                "Longitude": 23.52
            },
            {
                "Name": "Ohaba",
                "Subregion": "Mehedinti",
                "Latitude": 44.85,
                "Longitude": 22.85
            },
            {
                "Name": "Colibi",
                "Subregion": "Alba",
                "Latitude": 46.11,
                "Longitude": 23.79
            },
            {
                "Name": "Maghierat",
                "Subregion": "Alba",
                "Latitude": 46.05,
                "Longitude": 23.82
            },
            {
                "Name": "Secasel",
                "Subregion": "Alba",
                "Latitude": 46.1,
                "Longitude": 23.81
            },
            {
                "Name": "Pianu de Sus",
                "Subregion": "Alba",
                "Latitude": 45.9,
                "Longitude": 23.48
            },
            {
                "Name": "Pianu de Jos",
                "Subregion": "Alba",
                "Latitude": 45.94,
                "Longitude": 23.49
            },
            {
                "Name": "Plaiuri",
                "Subregion": "Cluj",
                "Latitude": 46.59,
                "Longitude": 23.57
            },
            {
                "Name": "Purcareti",
                "Subregion": "Alba",
                "Latitude": 45.83,
                "Longitude": 23.49
            },
            {
                "Name": "Strungari",
                "Subregion": "Alba",
                "Latitude": 45.86,
                "Longitude": 23.5
            },
            {
                "Name": "Poiana Vadului",
                "Subregion": "Alba",
                "Latitude": 46.4,
                "Longitude": 22.88
            },
            {
                "Name": "Duduieni",
                "Subregion": "Alba",
                "Latitude": 46.4,
                "Longitude": 22.86
            },
            {
                "Name": "Fagetu de Jos",
                "Subregion": "Alba",
                "Latitude": 46.4,
                "Longitude": 22.91
            },
            {
                "Name": "Fagetu de Sus",
                "Subregion": "Bacau",
                "Latitude": 46.6,
                "Longitude": 26.01
            },
            {
                "Name": "Lupaiesti",
                "Subregion": "Alba",
                "Latitude": 46.41,
                "Longitude": 22.91
            },
            {
                "Name": "Morcanesti",
                "Subregion": "Alba",
                "Latitude": 46.41,
                "Longitude": 22.92
            },
            {
                "Name": "Pastesti",
                "Subregion": "Alba",
                "Latitude": 46.41,
                "Longitude": 22.83
            },
            {
                "Name": "Petelei",
                "Subregion": "Alba",
                "Latitude": 46.42,
                "Longitude": 22.83
            },
            {
                "Name": "Stanesti",
                "Subregion": "Valcea",
                "Latitude": 44.9,
                "Longitude": 24.34
            },
            {
                "Name": "Ponor",
                "Subregion": "Hunedoara",
                "Latitude": 45.51,
                "Longitude": 23.13
            },
            {
                "Name": "Geogel",
                "Subregion": "Alba",
                "Latitude": 46.31,
                "Longitude": 23.38
            },
            {
                "Name": "Macaresti",
                "Subregion": "Iasi",
                "Latitude": 47.03,
                "Longitude": 27.97
            },
            {
                "Name": "Valea Bucurului",
                "Subregion": "Alba",
                "Latitude": 46.32,
                "Longitude": 23.37
            },
            {
                "Name": "Vale In Jos",
                "Subregion": "Alba",
                "Latitude": 46.35,
                "Longitude": 23.44
            },
            {
                "Name": "Posaga de Jos",
                "Subregion": "Alba",
                "Latitude": 46.43,
                "Longitude": 23.44
            },
            {
                "Name": "Cortesti",
                "Subregion": "Alba",
                "Latitude": 46.45,
                "Longitude": 23.3
            },
            {
                "Name": "Orasti",
                "Subregion": "Calarasi",
                "Latitude": 44.32,
                "Longitude": 26.28
            },
            {
                "Name": "Posaga de Sus",
                "Subregion": "Alba",
                "Latitude": 46.46,
                "Longitude": 23.38
            },
            {
                "Name": "Sagagea",
                "Subregion": "Alba",
                "Latitude": 46.49,
                "Longitude": 23.31
            },
            {
                "Name": "Radesti",
                "Subregion": "Vaslui",
                "Latitude": 46.48,
                "Longitude": 27.79
            },
            {
                "Name": "Leorint",
                "Subregion": "Alba",
                "Latitude": 46.25,
                "Longitude": 23.73
            },
            {
                "Name": "Mescreac",
                "Subregion": "Alba",
                "Latitude": 46.24,
                "Longitude": 23.74
            },
            {
                "Name": "Soimus",
                "Subregion": "Salaj",
                "Latitude": 47.3,
                "Longitude": 23.19
            },
            {
                "Name": "Rametea",
                "Subregion": "Alba",
                "Latitude": 46.45,
                "Longitude": 23.57
            },
            {
                "Name": "Coltesti",
                "Subregion": "Valcea",
                "Latitude": 44.98,
                "Longitude": 23.83
            },
            {
                "Name": "Ramet",
                "Subregion": "Alba",
                "Latitude": 46.31,
                "Longitude": 23.53
            },
            {
                "Name": "Botani",
                "Subregion": "Alba",
                "Latitude": 46.29,
                "Longitude": 23.44
            },
            {
                "Name": "Bradesti",
                "Subregion": "Vaslui",
                "Latitude": 46.16,
                "Longitude": 27.77
            },
            {
                "Name": "Cheia",
                "Subregion": "Valcea",
                "Latitude": 45.18,
                "Longitude": 24.22
            },
            {
                "Name": "Cotorasti",
                "Subregion": "Alba",
                "Latitude": 46.33,
                "Longitude": 23.55
            },
            {
                "Name": "Olteni",
                "Subregion": "Vrancea",
                "Latitude": 45.73,
                "Longitude": 27.1
            },
            {
                "Name": "Valea Fagetului",
                "Subregion": "Alba",
                "Latitude": 46.32,
                "Longitude": 23.52
            },
            {
                "Name": "Valea Inzelului",
                "Subregion": "Alba",
                "Latitude": 46.33,
                "Longitude": 23.51
            },
            {
                "Name": "Valea Manastirii",
                "Subregion": "Gorj",
                "Latitude": 44.82,
                "Longitude": 22.94
            },
            {
                "Name": "Valea Uzei",
                "Subregion": "Alba",
                "Latitude": 46.31,
                "Longitude": 23.51
            },
            {
                "Name": "Vladesti",
                "Subregion": "Valcea",
                "Latitude": 45.12,
                "Longitude": 24.31
            },
            {
                "Name": "Rosia Montana",
                "Subregion": "Alba",
                "Latitude": 46.31,
                "Longitude": 23.13
            },
            {
                "Name": "Balmosesti",
                "Subregion": "Alba",
                "Latitude": 46.31,
                "Longitude": 23.09
            },
            {
                "Name": "Blidesti",
                "Subregion": "Alba",
                "Latitude": 46.3,
                "Longitude": 23.09
            },
            {
                "Name": "Bunta",
                "Subregion": "Alba",
                "Latitude": 46.28,
                "Longitude": 23.12
            },
            {
                "Name": "Coasta Hentii",
                "Subregion": "Alba",
                "Latitude": 46.31,
                "Longitude": 23.06
            },
            {
                "Name": "Corna",
                "Subregion": "Alba",
                "Latitude": 46.29,
                "Longitude": 23.13
            },
            {
                "Name": "Curaturi",
                "Subregion": "Iasi",
                "Latitude": 47.03,
                "Longitude": 27.57
            },
            {
                "Name": "Daroaia",
                "Subregion": "Alba",
                "Latitude": 46.3,
                "Longitude": 23.04
            },
            {
                "Name": "Garda-Barbulesti",
                "Subregion": "Alba",
                "Latitude": 46.33,
                "Longitude": 23.12
            },
            {
                "Name": "Gura Rosiei",
                "Subregion": "Alba",
                "Latitude": 46.31,
                "Longitude": 23.06
            },
            {
                "Name": "Iacobesti",
                "Subregion": "Suceava",
                "Latitude": 47.77,
                "Longitude": 26.09
            },
            {
                "Name": "Ignatesti",
                "Subregion": "Alba",
                "Latitude": 46.31,
                "Longitude": 23.08
            },
            {
                "Name": "Soal",
                "Subregion": "Alba",
                "Latitude": 46.33,
                "Longitude": 23.07
            },
            {
                "Name": "Tarina",
                "Subregion": "Alba",
                "Latitude": 46.31,
                "Longitude": 23.13
            },
            {
                "Name": "Vartop",
                "Subregion": "Dolj",
                "Latitude": 44.21,
                "Longitude": 23.35
            },
            {
                "Name": "Rosia de Secas",
                "Subregion": "Alba",
                "Latitude": 46.06,
                "Longitude": 23.89
            },
            {
                "Name": "Tau",
                "Subregion": "Mures",
                "Latitude": 46.59,
                "Longitude": 24.16
            },
            {
                "Name": "Ungurei",
                "Subregion": "Alba",
                "Latitude": 46.02,
                "Longitude": 23.83
            },
            {
                "Name": "Salciua de Jos",
                "Subregion": "Alba",
                "Latitude": 46.4,
                "Longitude": 23.42
            },
            {
                "Name": "Dealu Caselor",
                "Subregion": "Alba",
                "Latitude": 46.38,
                "Longitude": 23.39
            },
            {
                "Name": "Dumesti",
                "Subregion": "Vaslui",
                "Latitude": 46.85,
                "Longitude": 27.3
            },
            {
                "Name": "Salciua de Sus",
                "Subregion": "Alba",
                "Latitude": 46.39,
                "Longitude": 23.4
            },
            {
                "Name": "Sub Piatra",
                "Subregion": "Alba",
                "Latitude": 46.38,
                "Longitude": 23.45
            },
            {
                "Name": "Valea Larga",
                "Subregion": "Prahova",
                "Latitude": 44.96,
                "Longitude": 26.2
            },
            {
                "Name": "Salistea",
                "Subregion": "Valcea",
                "Latitude": 45.35,
                "Longitude": 24.14
            },
            {
                "Name": "Margineni",
                "Subregion": "Valcea",
                "Latitude": 44.7,
                "Longitude": 24.01
            },
            {
                "Name": "Salistea-Deal",
                "Subregion": "Alba",
                "Latitude": 45.9,
                "Longitude": 23.43
            },
            {
                "Name": "Tartaria",
                "Subregion": "Alba",
                "Latitude": 45.93,
                "Longitude": 23.41
            },
            {
                "Name": "Sasciori",
                "Subregion": "Brasov",
                "Latitude": 45.76,
                "Longitude": 24.96
            },
            {
                "Name": "Capalna",
                "Subregion": "Salaj",
                "Latitude": 47.25,
                "Longitude": 23.74
            },
            {
                "Name": "Laz",
                "Subregion": "Arad",
                "Latitude": 46.37,
                "Longitude": 22.25
            },
            {
                "Name": "Loman",
                "Subregion": "Alba",
                "Latitude": 45.86,
                "Longitude": 23.55
            },
            {
                "Name": "Plesi",
                "Subregion": "Buzau",
                "Latitude": 45.58,
                "Longitude": 26.69
            },
            {
                "Name": "Rachita",
                "Subregion": "Timis",
                "Latitude": 45.84,
                "Longitude": 22.11
            },
            {
                "Name": "Sebesel",
                "Subregion": "Alba",
                "Latitude": 45.89,
                "Longitude": 23.57
            },
            {
                "Name": "Tonea",
                "Subregion": "Calarasi",
                "Latitude": 44.21,
                "Longitude": 27.41
            },
            {
                "Name": "Scarisoara",
                "Subregion": "Valcea",
                "Latitude": 45.06,
                "Longitude": 24.22
            },
            {
                "Name": "Fata-Lazesti",
                "Subregion": "Alba",
                "Latitude": 46.43,
                "Longitude": 22.86
            },
            {
                "Name": "Lazesti",
                "Subregion": "Alba",
                "Latitude": 46.42,
                "Longitude": 22.94
            },
            {
                "Name": "Lespezea",
                "Subregion": "Alba",
                "Latitude": 46.48,
                "Longitude": 22.9
            },
            {
                "Name": "Matei",
                "Subregion": "Bistrita-Nasaud",
                "Latitude": 46.98,
                "Longitude": 24.27
            },
            {
                "Name": "Negesti",
                "Subregion": "Arges",
                "Latitude": 45.0,
                "Longitude": 24.66
            },
            {
                "Name": "Sfoartea",
                "Subregion": "Alba",
                "Latitude": 46.52,
                "Longitude": 22.85
            },
            {
                "Name": "Stiuleti",
                "Subregion": "Alba",
                "Latitude": 46.45,
                "Longitude": 22.92
            },
            {
                "Name": "Trancesti",
                "Subregion": "Alba",
                "Latitude": 46.48,
                "Longitude": 22.87
            },
            {
                "Name": "Sancel",
                "Subregion": "Harghita",
                "Latitude": 46.47,
                "Longitude": 25.3
            },